{"cities":[
    {"city":"Whetherspoons, Dublin", "lat":"53.347860", "lon":"-6.272487"},
    {"city":"O'Shea's Bar & Grill, Kerry", "lat":"52.264007", "lon":"-9.686990"},
    {"city":"Coppi's Restaurant, Belfast", "lat":"54.602755", "lon":"-5.945180"},
    {"city":"Eireanns Isle, Galway", "lat":"53.276533", "lon":"-9.069362"},
    {"city":"Greene's Restaurant, Cork", "lat":"51.892171", "lon":"-8.475068"},
    {"city":"The Yard Restaurant, Wexford", "lat":"52.336521", "lon":"-6.462855"}
]}